<?xml version="1.0" encoding="UTF-8"?>
<gpx version="1.0" creator="GPSBabel - http://www.gpsbabel.org" xmlns="http://www.topografix.com/GPX/1/0">
  <time>2018-04-09T00:11:45.777Z</time>
  <bounds minlat="41.0" minlon="-92.0" maxlat="42.0" maxlon="-93.0"/>
  <wpt lat="41.993316667" lon="-92.548833333">
    <ele>0.000000</ele>
    <name>GC7MRCH</name>
    <cmt>Irish Eyes by Summitt Dweller
	</cmt>
    <desc>Irish Eyes by Summitt Dweller
	</desc>
    <url>http://www.geocaching.com/seek/cache_details.aspx?wp=GC7MRCH</url>
    <urlname>Cache Details</urlname>
    <sym>Geocache</sym>
  </wpt>
  <wpt lat="41.993310" lon="-92.548866667">
    <ele>0.000000</ele>
    <name>GC7MRPT</name>
    <cmt>Irish Eyes - S2 by Summitt Dweller
	</cmt>
    <desc>Irish Eyes - S2 by Summitt Dweller
	</desc>
    <url>http://www.geocaching.com/seek/cache_details.aspx?wp=GC7MRPT</url>
    <urlname>Cache Details</urlname>
    <sym>Geocache</sym>
  </wpt>
  <wpt lat="41.994183333" lon="-92.550066667">
    <ele>0.000000</ele>
    <name>GC7MRHA</name>
    <cmt>Irish Eyes - 8 by Summitt Dweller
	</cmt>
    <desc>Irish Eyes - 8 by Summitt Dweller
	</desc>
    <url>http://www.geocaching.com/seek/cache_details.aspx?wp=GC7MRHA</url>
    <urlname>Cache Details</urlname>
    <sym>Geocache</sym>
  </wpt>
  <wpt lat="41.994183333" lon="-92.547583333">
    <ele>0.000000</ele>
    <name>GC7MRHF</name>
    <cmt>Irish Eyes - 8R by Summitt Dweller
	</cmt>
    <desc>Irish Eyes - 8R by Summitt Dweller
	</desc>
    <url>http://www.geocaching.com/seek/cache_details.aspx?wp=GC7MRHF</url>
    <urlname>Cache Details</urlname>
    <sym>Geocache</sym>
  </wpt>
  <wpt lat="41.991983000" lon="-92.549638000">
    <ele>0.000000</ele>
    <name>GC7MRJ8</name>
    <cmt>Irish Eyes - 9R by Summitt Dweller
	</cmt>
    <desc>Irish Eyes - 9R by Summitt Dweller
	</desc>
    <url>http://www.geocaching.com/seek/cache_details.aspx?wp=GC7MRJ8</url>
    <urlname>Cache Details</urlname>
    <sym>Geocache</sym>
  </wpt>
  <wpt lat="41.991983333" lon="-92.548016667">
    <ele>0.000000</ele>
    <name>GC7MRJ0</name>
    <cmt>Irish Eyes - 9 by Summitt Dweller
	</cmt>
    <desc>Irish Eyes - 9 by Summitt Dweller
	</desc>
    <url>http://www.geocaching.com/seek/cache_details.aspx?wp=GC7MRJ0</url>
    <urlname>Cache Details</urlname>
    <sym>Geocache</sym>
  </wpt>
  <wpt lat="41.994950000" lon="-92.551183333">
    <ele>0.000000</ele>
    <name>GC7MRGZ</name>
    <cmt>Irish Eyes - 7 by Summitt Dweller
	</cmt>
    <desc>Irish Eyes - 7 by Summitt Dweller
	</desc>
    <url>http://www.geocaching.com/seek/cache_details.aspx?wp=GC7MRGZ</url>
    <urlname>Cache Details</urlname>
    <sym>Geocache</sym>
  </wpt>
  <wpt lat="41.994950000" lon="-92.546466667">
    <ele>0.000000</ele>
    <name>GC7MRH3</name>
    <cmt>Irish Eyes - 7R by Summitt Dweller
	</cmt>
    <desc>Irish Eyes - 7R by Summitt Dweller
	</desc>
    <url>http://www.geocaching.com/seek/cache_details.aspx?wp=GC7MRH3</url>
    <urlname>Cache Details</urlname>
    <sym>Geocache</sym>
  </wpt>
  <wpt lat="41.990500000" lon="-92.547183333">
    <ele>0.000000</ele>
    <name>GC7MRJF</name>
    <cmt>Irish Eyes - 10 by Summitt Dweller
	</cmt>
    <desc>Irish Eyes - 10 by Summitt Dweller
	</desc>
    <url>http://www.geocaching.com/seek/cache_details.aspx?wp=GC7MRJF</url>
    <urlname>Cache Details</urlname>
    <sym>Geocache</sym>
  </wpt>
  <wpt lat="41.990500000" lon="-92.550483333">
    <ele>0.000000</ele>
    <name>GC7MRJQ</name>
    <cmt>Irish Eyes - 10R by Summitt Dweller
	</cmt>
    <desc>Irish Eyes - 10R by Summitt Dweller
	</desc>
    <url>http://www.geocaching.com/seek/cache_details.aspx?wp=GC7MRJQ</url>
    <urlname>Cache Details</urlname>
    <sym>Geocache</sym>
  </wpt>
  <wpt lat="41.994933333" lon="-92.552500000">
    <ele>0.000000</ele>
    <name>GC7MRPP</name>
    <cmt>Irish Eyes - 20R by Summitt Dweller
	</cmt>
    <desc>Irish Eyes - 20R by Summitt Dweller
	</desc>
    <url>http://www.geocaching.com/seek/cache_details.aspx?wp=GC7MRPP</url>
    <urlname>Cache Details</urlname>
    <sym>Geocache</sym>
  </wpt>
  <wpt lat="41.994933333" lon="-92.545150000">
    <ele>0.000000</ele>
    <name>GC7MRPH</name>
    <cmt>Irish Eyes - 20 by Summitt Dweller
	</cmt>
    <desc>Irish Eyes - 20 by Summitt Dweller
	</desc>
    <url>http://www.geocaching.com/seek/cache_details.aspx?wp=GC7MRPH</url>
    <urlname>Cache Details</urlname>
    <sym>Geocache</sym>
  </wpt>
  <wpt lat="41.989271" lon="-92.548666667">
    <ele>0.000000</ele>
    <name>GC7MRPY</name>
    <cmt>Irish Eyes - S3 by Summitt Dweller
	</cmt>
    <desc>Irish Eyes - S3 by Summitt Dweller
	</desc>
    <url>http://www.geocaching.com/seek/cache_details.aspx?wp=GC7MRPY</url>
    <urlname>Cache Details</urlname>
    <sym>Geocache</sym>
  </wpt>
  <wpt lat="41.996152000" lon="-92.552813000">
    <ele>0.000000</ele>
    <name>GC7MRGQ</name>
    <cmt>Irish Eyes - 6 by Summitt Dweller
	</cmt>
    <desc>Irish Eyes - 6 by Summitt Dweller
	</desc>
    <url>http://www.geocaching.com/seek/cache_details.aspx?wp=GC7MRGQ</url>
    <urlname>Cache Details</urlname>
    <sym>Geocache</sym>
  </wpt>
  <wpt lat="41.996150000" lon="-92.544850000">
    <ele>0.000000</ele>
    <name>GC7MRGT</name>
    <cmt>Irish Eyes - 6R by Summitt Dweller
	</cmt>
    <desc>Irish Eyes - 6R by Summitt Dweller
	</desc>
    <url>http://www.geocaching.com/seek/cache_details.aspx?wp=GC7MRGT</url>
    <urlname>Cache Details</urlname>
    <sym>Geocache</sym>
  </wpt>
  <wpt lat="41.988983333" lon="-92.546066667">
    <ele>0.000000</ele>
    <name>GC7MRM5</name>
    <cmt>Irish Eyes - 11 by Summitt Dweller
	</cmt>
    <desc>Irish Eyes - 11 by Summitt Dweller
	</desc>
    <url>http://www.geocaching.com/seek/cache_details.aspx?wp=GC7MRM5</url>
    <urlname>Cache Details</urlname>
    <sym>Geocache</sym>
  </wpt>
  <wpt lat="41.988983333" lon="-92.551600000">
    <ele>0.000000</ele>
    <name>GC7MRMA</name>
    <cmt>Irish Eyes - 11R by Summitt Dweller
	</cmt>
    <desc>Irish Eyes - 11R by Summitt Dweller
	</desc>
    <url>http://www.geocaching.com/seek/cache_details.aspx?wp=GC7MRMA</url>
    <urlname>Cache Details</urlname>
    <sym>Geocache</sym>
  </wpt>
  <wpt lat="41.995650000" lon="-92.542700000">
    <ele>0.000000</ele>
    <name>GC7MRP7</name>
    <cmt>Irish Eyes - 19 by Summitt Dweller
	</cmt>
    <desc>Irish Eyes - 19 by Summitt Dweller
	</desc>
    <url>http://www.geocaching.com/seek/cache_details.aspx?wp=GC7MRP7</url>
    <urlname>Cache Details</urlname>
    <sym>Geocache</sym>
  </wpt>
  <wpt lat="41.995650000" lon="-92.554966667">
    <ele>0.000000</ele>
    <name>GC7MRPC</name>
    <cmt>Irish Eyes - 19R by Summitt Dweller
	</cmt>
    <desc>Irish Eyes - 19R by Summitt Dweller
	</desc>
    <url>http://www.geocaching.com/seek/cache_details.aspx?wp=GC7MRPC</url>
    <urlname>Cache Details</urlname>
    <sym>Geocache</sym>
  </wpt>
  <wpt lat="41.991600000" lon="-92.541933333">
    <ele>0.000000</ele>
    <name>GC7MRN2</name>
    <cmt>Irish Eyes - 15 by Summitt Dweller
	</cmt>
    <desc>Irish Eyes - 15 by Summitt Dweller
	</desc>
    <url>http://www.geocaching.com/seek/cache_details.aspx?wp=GC7MRN2</url>
    <urlname>Cache Details</urlname>
    <sym>Geocache</sym>
  </wpt>
  <wpt lat="41.993983333" lon="-92.539550000">
    <ele>0.000000</ele>
    <name>GC7MRNT</name>
    <cmt>Irish Eyes - 17 by Summitt Dweller
</cmt>
    <desc>Irish Eyes - 17 by Summitt Dweller
</desc>
    <url>http://www.geocaching.com/seek/cache_details.aspx?wp=GC7MRNT</url>
    <urlname>Cache Details</urlname>
    <sym>Geocache</sym>
  </wpt>
  <wpt lat="41.999950000" lon="-92.545483333">
    <ele>0.000000</ele>
    <name>GC7MRFA</name>
    <cmt>Irish Eyes - 3R by Summitt Dweller
</cmt>
    <desc>Irish Eyes - 3R by Summitt Dweller
</desc>
    <url>http://www.geocaching.com/seek/cache_details.aspx?wp=GC7MRFA</url>
    <urlname>Cache Details</urlname>
    <sym>Geocache</sym>
  </wpt>
  <wpt lat="41.999950000" lon="-92.552183333">
    <ele>0.000000</ele>
    <name>GC7MRF7</name>
    <cmt>Irish Eyes - 3 by Summitt Dweller
</cmt>
    <desc>Irish Eyes - 3 by Summitt Dweller
</desc>
    <url>http://www.geocaching.com/seek/cache_details.aspx?wp=GC7MRF7</url>
    <urlname>Cache Details</urlname>
    <sym>Geocache</sym>
  </wpt>
  <wpt lat="41.986426" lon="-92.545083333">
    <ele>0.000000</ele>
    <name>GC7MRQ3</name>
    <cmt>Irish Eyes - S5 by Summitt Dweller
</cmt>
    <desc>Irish Eyes - S5 by Summitt Dweller
</desc>
    <url>http://www.geocaching.com/seek/cache_details.aspx?wp=GC7MRQ3</url>
    <urlname>Cache Details</urlname>
    <sym>Geocache</sym>
  </wpt>
  <wpt lat="41.991600000" lon="-92.555733333">
    <ele>0.000000</ele>
    <name>GC7MRN6</name>
    <cmt>Irish Eyes - 15R by Summitt Dweller
</cmt>
    <desc>Irish Eyes - 15R by Summitt Dweller
</desc>
    <url>http://www.geocaching.com/seek/cache_details.aspx?wp=GC7MRN6</url>
    <urlname>Cache Details</urlname>
    <sym>Geocache</sym>
  </wpt>
  <wpt lat="41.998900000" lon="-92.548833333">
    <ele>0.000000</ele>
    <name>GC7MRD7</name>
    <cmt>Irish Eyes 2 by Summitt Dweller
</cmt>
    <desc>Irish Eyes 2 by Summitt Dweller
</desc>
    <url>http://www.geocaching.com/seek/cache_details.aspx?wp=GC7MRD7</url>
    <urlname>Cache Details</urlname>
    <sym>Geocache</sym>
  </wpt>
  <wpt lat="41.997633000" lon="-92.543667000">
    <ele>0.000000</ele>
    <name>GC7MRG4</name>
    <cmt>Irish Eyes - 5R by Summitt Dweller
</cmt>
    <desc>Irish Eyes - 5R by Summitt Dweller
</desc>
    <url>http://www.geocaching.com/seek/cache_details.aspx?wp=GC7MRG4</url>
    <urlname>Cache Details</urlname>
    <sym>Geocache</sym>
  </wpt>
  <wpt lat="41.997633333" lon="-92.554000000">
    <ele>0.000000</ele>
    <name>GC7MRFR</name>
    <cmt>Irish Eyes - 5 by Summitt Dweller
</cmt>
    <desc>Irish Eyes - 5 by Summitt Dweller
</desc>
    <url>http://www.geocaching.com/seek/cache_details.aspx?wp=GC7MRFR</url>
    <urlname>Cache Details</urlname>
    <sym>Geocache</sym>
  </wpt>
  <wpt lat="41.987536" lon="-92.548116667">
    <ele>0.000000</ele>
    <name>GC7MRQ0</name>
    <cmt>Irish Eyes - S4 by Summitt Dweller
</cmt>
    <desc>Irish Eyes - S4 by Summitt Dweller
</desc>
    <url>http://www.geocaching.com/seek/cache_details.aspx?wp=GC7MRQ0</url>
    <urlname>Cache Details</urlname>
    <sym>Geocache</sym>
  </wpt>
  <wpt lat="41.988267000" lon="-92.543883000">
    <ele>0.000000</ele>
    <name>GC7MRME</name>
    <cmt>Irish Eyes - 12 by Summitt Dweller
</cmt>
    <desc>Irish Eyes - 12 by Summitt Dweller
</desc>
    <url>http://www.geocaching.com/seek/cache_details.aspx?wp=GC7MRME</url>
    <urlname>Cache Details</urlname>
    <sym>Geocache</sym>
  </wpt>
  <wpt lat="41.988266667" lon="-92.553783333">
    <ele>0.000000</ele>
    <name>GC7MRMJ</name>
    <cmt>Irish Eyes - 12R by Summitt Dweller
</cmt>
    <desc>Irish Eyes - 12R by Summitt Dweller
</desc>
    <url>http://www.geocaching.com/seek/cache_details.aspx?wp=GC7MRMJ</url>
    <urlname>Cache Details</urlname>
    <sym>Geocache</sym>
  </wpt>
  <wpt lat="41.995150000" lon="-92.557133333">
    <ele>0.000000</ele>
    <name>GC7MRP3</name>
    <cmt>Irish Eyes - 18R by Summitt Dweller
</cmt>
    <desc>Irish Eyes - 18R by Summitt Dweller
</desc>
    <url>http://www.geocaching.com/seek/cache_details.aspx?wp=GC7MRP3</url>
    <urlname>Cache Details</urlname>
    <sym>Geocache</sym>
  </wpt>
  <wpt lat="41.995150000" lon="-92.540516667">
    <ele>0.000000</ele>
    <name>GC7MRP0</name>
    <cmt>Irish Eyes - 18 by Summitt Dweller
</cmt>
    <desc>Irish Eyes - 18 by Summitt Dweller
</desc>
    <url>http://www.geocaching.com/seek/cache_details.aspx?wp=GC7MRP0</url>
    <urlname>Cache Details</urlname>
    <sym>Geocache</sym>
  </wpt>
  <wpt lat="41.990250000" lon="-92.541083333">
    <ele>0.000000</ele>
    <name>GC7MRMX</name>
    <cmt>Irish Eyes - 14 by Summitt Dweller
</cmt>
    <desc>Irish Eyes - 14 by Summitt Dweller
</desc>
    <url>http://www.geocaching.com/seek/cache_details.aspx?wp=GC7MRMX</url>
    <urlname>Cache Details</urlname>
    <sym>Geocache</sym>
  </wpt>
  <wpt lat="41.990250000" lon="-92.556583333">
    <ele>0.000000</ele>
    <name>GC7MRN1</name>
    <cmt>Irish Eyes - 14R by Summitt Dweller
</cmt>
    <desc>Irish Eyes - 14R by Summitt Dweller
</desc>
    <url>http://www.geocaching.com/seek/cache_details.aspx?wp=GC7MRN1</url>
    <urlname>Cache Details</urlname>
    <sym>Geocache</sym>
  </wpt>
  <wpt lat="41.992433000" lon="-92.539933000">
    <ele>0.000000</ele>
    <name>GC7MRNA</name>
    <cmt>Irish Eyes - 16 by Summitt Dweller
</cmt>
    <desc>Irish Eyes - 16 by Summitt Dweller
</desc>
    <url>http://www.geocaching.com/seek/cache_details.aspx?wp=GC7MRNA</url>
    <urlname>Cache Details</urlname>
    <sym>Geocache</sym>
  </wpt>
  <wpt lat="41.992433333" lon="-92.557733333">
    <ele>0.000000</ele>
    <name>GC7MRNE</name>
    <cmt>Irish Eyes - 16R by Summitt Dweller
</cmt>
    <desc>Irish Eyes - 16R by Summitt Dweller
</desc>
    <url>http://www.geocaching.com/seek/cache_details.aspx?wp=GC7MRNE</url>
    <urlname>Cache Details</urlname>
    <sym>Geocache</sym>
  </wpt>
  <wpt lat="41.999050000" lon="-92.544050000">
    <ele>0.000000</ele>
    <name>GC7MRFH</name>
    <cmt>Irish Eyes - 4R by Summitt Dweller
</cmt>
    <desc>Irish Eyes - 4R by Summitt Dweller
</desc>
    <url>http://www.geocaching.com/seek/cache_details.aspx?wp=GC7MRFH</url>
    <urlname>Cache Details</urlname>
    <sym>Geocache</sym>
  </wpt>
  <wpt lat="41.999050000" lon="-92.553616667">
    <ele>0.000000</ele>
    <name>GC7MRFC</name>
    <cmt>Irish Eyes - 4 by Summitt Dweller
</cmt>
    <desc>Irish Eyes - 4 by Summitt Dweller
</desc>
    <url>http://www.geocaching.com/seek/cache_details.aspx?wp=GC7MRFC</url>
    <urlname>Cache Details</urlname>
    <sym>Geocache</sym>
  </wpt>
  <wpt lat="41.999966667" lon="-92.550416667">
    <ele>0.000000</ele>
    <name>GC7MREG</name>
    <cmt>Irish Eyes - 2 by Summitt Dweller
</cmt>
    <desc>Irish Eyes - 2 by Summitt Dweller
</desc>
    <url>http://www.geocaching.com/seek/cache_details.aspx?wp=GC7MREG</url>
    <urlname>Cache Details</urlname>
    <sym>Geocache</sym>
  </wpt>
  <wpt lat="41.999966667" lon="-92.547233333">
    <ele>0.000000</ele>
    <name>GC7MRF0</name>
    <cmt>Irish Eyes - 2R by Summitt Dweller
</cmt>
    <desc>Irish Eyes - 2R by Summitt Dweller
</desc>
    <url>http://www.geocaching.com/seek/cache_details.aspx?wp=GC7MRF0</url>
    <urlname>Cache Details</urlname>
    <sym>Geocache</sym>
  </wpt>
  <wpt lat="41.988800000" lon="-92.541783333">
    <ele>0.000000</ele>
    <name>GC7MRMN</name>
    <cmt>Irish Eyes - 13 by Summitt Dweller
</cmt>
    <desc>Irish Eyes - 13 by Summitt Dweller
</desc>
    <url>http://www.geocaching.com/seek/cache_details.aspx?wp=GC7MRMN</url>
    <urlname>Cache Details</urlname>
    <sym>Geocache</sym>
  </wpt>
  <wpt lat="41.988800000" lon="-92.555883333">
    <ele>0.000000</ele>
    <name>GC7MRMV</name>
    <cmt>Irish Eyes - 13R by Summitt Dweller
</cmt>
    <desc>Irish Eyes - 13R by Summitt Dweller
</desc>
    <url>http://www.geocaching.com/seek/cache_details.aspx?wp=GC7MRMV</url>
    <urlname>Cache Details</urlname>
    <sym>Geocache</sym>
  </wpt>
  <wpt lat="41.993983333" lon="-92.558100000">
    <ele>0.000000</ele>
    <name>GC7MRNX</name>
    <cmt>Irish Eyes - 17R by Summitt Dweller
</cmt>
    <desc>Irish Eyes - 17R by Summitt Dweller
</desc>
    <url>http://www.geocaching.com/seek/cache_details.aspx?wp=GC7MRNX</url>
    <urlname>Cache Details</urlname>
    <sym>Geocache</sym>
  </wpt>
</gpx>
